City_ID,City,Country,Max Temp,Current Description,Lat,Lng,Hotel Name
1,Dasoguz,TM,32.0,overcast clouds,41.8363,59.9666,Hotel Erik
2,Severo-Kurilsk,RU,12.6,broken clouds,50.6789,156.125,Kak Doma
4,Punta Arenas,CL,50.0,few clouds,-53.15,-70.9167,Hotel Dreams Del Estrecho
7,Bluff,NZ,58.41,overcast clouds,-46.6,168.3333,Bluff Homestead - Guesthouse & Campervan Park
8,Mantua,IT,46.0,overcast clouds,45.1667,10.7833,Hotel la Favorita
9,Camacha,PT,55.4,broken clouds,33.0833,-16.3333,Hotel Porto Santo & Spa
11,Tuatapere,NZ,67.17,overcast clouds,-46.1333,167.6833,Ron and Tony's Bed & Breakfast
12,Bela,IN,54.77,broken clouds,25.9333,81.9833,Raj Bhawan
13,Katsuura,JP,46.4,few clouds,35.1333,140.3,Katsuura Hotel Mikazuki
14,Guerrero Negro,MX,61.93,overcast clouds,27.9769,-114.0611,"Casa Laguna, Bed & Breakfast"
16,Yalta,UA,48.0,few clouds,44.5,34.1667,Yalta-Inturist
19,Lompoc,US,55.4,clear sky,34.6391,-120.4579,Holiday Inn Express Lompoc
20,Nanortalik,GL,21.58,overcast clouds,60.1432,-45.2371,Hotel Kap Farvel
27,Petropavl,KZ,21.2,overcast clouds,54.8753,69.1628,Отель GREENWICH
30,Vardo,NO,28.18,overcast clouds,70.3705,31.1107,Vardø Hotel AS
35,Ushuaia,AR,46.4,few clouds,-54.8,-68.3,Albatros Hotel
38,Kirkuk,IQ,55.02,overcast clouds,35.4681,44.3922,Cihad Oteli
39,Kaitangata,NZ,60.01,broken clouds,-46.2817,169.8464,Kaitangata Motor Camp
40,Jamestown,US,35.01,clear sky,42.097,-79.2353,Hampton Inn & Suites Jamestown
42,Borzna,UA,22.08,overcast clouds,51.2546,32.4269,Готель VIRA
46,Inyonga,TZ,63.32,broken clouds,-6.7167,32.0667,Eden Rock Lodge
47,Kapaa,US,68.0,overcast clouds,22.0752,-159.319,Sheraton Kauai Resort at Coconut Beach
48,Plouzane,FR,46.4,broken clouds,48.3833,-4.6167,Lymina
50,Cape Town,ZA,66.99,clear sky,-33.9258,18.4232,"Radisson Blu Hotel Waterfront, Cape Town"
51,Vila,PT,39.99,broken clouds,42.0304,-8.1588,Hotel Castrum Villae by Walk Hotels
52,Kruisfontein,ZA,62.01,clear sky,-34.0033,24.7314,Oyster Bay House Rental
53,Lakeville,US,12.0,haze,44.6497,-93.2427,"Motel 6 Lakeville, MN - South - Lakeville"
56,Esperance,AU,62.6,overcast clouds,-33.8667,121.9,Hospitality Esperance
57,Chuy,UY,65.68,overcast clouds,-33.6971,-53.4616,Nuevo Hotel Plaza
61,Ponta Do Sol,PT,51.01,broken clouds,32.6667,-17.1,Hotel do Campo
65,Atbasar,KZ,28.87,overcast clouds,51.8,68.3333,"The Ritz-Carlton, Astana"
66,Tasiilaq,GL,26.6,light snow,65.6145,-37.6368,The Red House
69,Cidreira,BR,69.31,clear sky,-30.1811,-50.2056,Hotel Castelo
71,Simao,CN,54.32,clear sky,22.7886,100.9748,Changyu Hotel
72,Graaff-Reinet,ZA,63.0,overcast clouds,-32.2522,24.5308,Rietjiesbos B&B
73,Hermanus,ZA,64.0,few clouds,-34.4187,19.2345,Misty Waves Boutique Hotel
74,Trelleborg,SE,24.8,clear sky,55.3751,13.1569,Hotell Dannegården
83,Minsk,BY,15.8,light snow,53.9,27.5667,Minsk Hotel
84,Port Elgin,CA,32.0,overcast clouds,46.0487,-64.0868,Pumpkinn B&B
86,Tezu,IN,60.66,clear sky,27.9167,96.1667,Circuit House
87,Payson,US,34.0,few clouds,40.0444,-111.7321,Quality Inn Payson I-15
88,Hasaki,JP,44.6,few clouds,35.7333,140.8333,Inubosaki Kanko Hotel
89,Grabouw,ZA,66.0,clear sky,-34.1515,19.0151,Belfield Wines and Farm Cottages
91,Fortuna,US,51.01,clear sky,40.5982,-124.1573,Super 8 by Wyndham Fortuna
93,Tura,IN,58.87,clear sky,25.5198,90.2201,Hotel RIKMAN Continental
96,Codrington,AU,59.49,light rain,-38.2667,141.9667,Codrington Gardens Bed And Breakfast
97,Yazman,PK,51.04,clear sky,29.1212,71.7446,Jamal sons showroom
98,Castro,BR,65.84,clear sky,-24.7911,-50.0119,CHACARA BAILLY
106,Jensen Beach,US,60.8,clear sky,27.2545,-80.2298,Courtyard by Marriott Hutchinson Island Oceanside/Jensen Beach
112,Traverse City,US,32.0,mist,44.7631,-85.6206,Bayshore Resort
114,Laguna,US,60.8,clear sky,38.421,-121.4238,Holiday Inn Express & Suites Elk Grove Central - Hwy 99
115,Poitiers,FR,50.0,moderate rain,46.5833,0.3333,ibis Poitiers Centre
116,Eureka,US,53.01,few clouds,40.8021,-124.1637,Eureka Inn Trademark By Wyndham
118,Mar Del Plata,AR,64.99,mist,-38.0023,-57.5575,Gran Hotel Mar del Plata
119,Honghu,CN,48.15,light rain,29.8206,113.4621,文泉花园酒店
120,Paamiut,GL,16.74,clear sky,61.994,-49.6678,Yeet Hotel
122,Mount Gambier,AU,62.6,broken clouds,-37.8333,140.7667,Commodore on the Park
124,Damaturu,NG,66.79,clear sky,11.747,11.9608,"Hayas Guest Inn, Central Roundabout, Gujba Road"
126,Port Hardy,CA,42.8,moderate rain,50.6996,-127.4199,Airport Inn
129,Hikone,JP,46.0,broken clouds,35.25,136.25,Hikone Castle Resort & Spa
130,Nishihara,JP,66.2,broken clouds,26.1842,127.7558,Minshuku Agaihama
134,Gashua,NG,66.81,clear sky,12.870999999999999,11.0482,Forte Oil - Old Lorry Park
136,Port Alfred,ZA,66.0,scattered clouds,-33.5906,26.891,The Halyards Hotel
137,Maloy,NO,24.8,clear sky,61.9353,5.1136,Torget Hotell
138,Mehamn,NO,27.0,light snow,71.0357,27.8492,Mehamn Arctic Hotel AS
139,Salalah,OM,69.8,scattered clouds,17.0151,54.0924,HAMDAN PLAZA HOTEL SALALAH
141,Biltine,TD,65.14,clear sky,14.5333,20.9167,Hôtel Trois Étoiles de Biltine
142,Bethel,US,30.0,clear sky,41.3712,-73.414,Courtyard by Marriott Danbury
144,Hofn,IS,35.92,overcast clouds,64.2539,-15.2082,Hótel Höfn
145,Nago,JP,66.2,scattered clouds,26.5881,127.9761,Hotel Yugaf Inn Okinawa
146,Sorland,NO,37.09,overcast clouds,67.667,12.6934,Sjybrygga fiskecamp
148,Methven,NZ,66.0,scattered clouds,-43.6333,171.65,Brinkley Resort
150,Havoysund,NO,30.2,light snow,70.9963,24.6622,Arctic View Glamping & Restaurant
151,Kamiichi,JP,43.0,broken clouds,36.7,137.3667,旅館 だんごや
152,Kaspiyskiy,RU,40.77,overcast clouds,45.3929,47.3707,"Gostinitsa ""Gostevoy Dvor"""
153,Arcata,US,53.01,clear sky,40.8665,-124.0828,"Hampton Inn & Suites Arcata, CA"
159,Busselton,AU,64.99,clear sky,-33.65,115.3333,Observatory Guest House
161,Escanaba,US,32.0,snow,45.7453,-87.0646,Sunset Lodge
165,Saint George,US,51.01,clear sky,37.1041,-113.5841,Best Western Plus Abbey Inn
166,Asilah,MA,57.2,clear sky,35.465,-6.0348,Hotel Zelis
168,Marondera,ZW,60.22,clear sky,-18.1853,31.5519,HopeFay Conference Centre
169,Roma,US,25.0,clear sky,43.2128,-75.4557,Wingate By Wyndham Rome
172,Hamilton,US,37.4,light rain,39.1834,-84.5333,Six Acres Bed & Breakfast
179,Washington,US,44.6,few clouds,47.5001,-120.5015,"Cashmere Cider Mill Guest Suites, Weddings & Tasting Room"
180,Port Elizabeth,ZA,62.6,clear sky,-33.918,25.5701,39 On Nile Guest House
185,Kodiak,US,30.2,clear sky,57.79,-152.4072,Best Western Kodiak Inn And Convention Center
191,Stornoway,GB,37.4,overcast clouds,58.2093,-6.3865,Caladh Inn
192,Maarianhamina,AX,19.4,light snow,60.0973,19.9348,Park Alandia Hotel
193,Longyearbyen,SJ,15.8,broken clouds,78.2186,15.6401,"Radisson Blu Polar Hotel, Spitsbergen"
195,Palmer,US,24.01,few clouds,42.1584,-72.3287,Wedgewood Motel
197,Gorno-Altaysk,RU,21.02,overcast clouds,51.9561,85.955,"Otel' "" Ryzhiy Pos"""
199,Port Lincoln,AU,61.84,overcast clouds,-34.7333,135.8667,Port Lincoln Hotel
204,Bayir,TR,42.8,mist,37.2687,28.2167,Hotel Babadag
208,Dunedin,NZ,57.0,overcast clouds,-45.8742,170.5036,Scenic Hotel Southern Cross
210,Nouadhibou,MR,64.4,clear sky,20.930999999999997,-17.0347,El Medina
213,Sitka,US,37.4,few clouds,57.0531,-135.33,Westmark Sitka
214,Applewood,US,36.0,scattered clouds,39.7578,-105.1625,La Quinta Inn by Wyndham Denver Golden
216,Vestmannaeyjar,IS,39.87,overcast clouds,63.4427,-20.2734,Glamping & Camping
218,Boras,SE,10.99,clear sky,57.721000000000004,12.9401,Scandic Plaza Borås
219,Douglas,US,23.0,clear sky,41.3,-96.167,Hilton Garden Inn Omaha West
222,San Patricio,US,69.8,few clouds,28.017,-97.5169,"Motel 6 Sinton, TX"
223,Bow Island,CA,23.0,overcast clouds,49.8668,-111.3684,Pleasant View Lodge
225,Kethely,HU,39.2,clear sky,46.646,17.3936,Kristinus Vinotel - New Wine Hotel at Lake Balaton
226,Muros,ES,48.0,overcast clouds,42.7762,-9.0603,Apartment Av. Castelao
227,Frederico Westphalen,BR,66.0,clear sky,-27.3592,-53.3944,Hotel Palace Frederico
228,Chalmette,US,66.2,overcast clouds,29.9427,-89.9634,Marina Motel Chalmette
229,Zharkent,KZ,27.68,overcast clouds,44.1628,80.0,гостиница Satti
230,Bredasdorp,ZA,62.6,clear sky,-34.5322,20.0403,Bredasdorp Country Manor
231,Xuddur,SO,65.5,clear sky,4.1213,43.8894,Banjanay Hotel
232,Jerome,US,33.8,overcast clouds,42.7241,-114.5186,Best Western Sawtooth Inn & Suites
233,Zorleni,RO,37.4,clear sky,46.2667,27.7167,PENSIUNEA MIRA - Simba TOURS.SRL
235,Lerwick,GB,35.6,broken clouds,60.1545,-1.1494,The Lerwick Hotel
236,Phalodi,IN,53.64,clear sky,27.1333,72.3667,"HOTEL NEW GOLDEN PALACE , PHALODI"
237,Leeuwarden,NL,37.0,fog,53.2014,5.8086,Bastion Hotel Leeuwarden
240,Tahoua,NE,68.0,clear sky,14.8888,5.2692,Bungalows Guesthouse
242,Mahabad,IR,40.03,overcast clouds,36.7631,45.7222,Afshar Hotel
244,Wynyard,AU,66.99,moderate rain,-41.0,145.7167,Burnie Airport Motel
245,Tocopilla,CL,67.96,scattered clouds,-22.092,-70.1979,Hotel Galvarino
248,Akdepe,TM,39.2,overcast clouds,42.0551,59.3788,Мой дом
249,Ken Caryl,US,36.0,clear sky,39.5773,-105.1169,Hampton Inn & Suites Denver Littleton
253,Zhezkazgan,KZ,20.48,overcast clouds,47.8043,67.7144,Ul. Ranova 15-1 Kvartiry Posutochno.
254,Vila Franca Do Campo,PT,55.0,scattered clouds,37.7167,-25.4333,Pestana Bahia Praia
255,Harrisburg,US,33.01,clear sky,40.2737,-76.8844,Hilton Harrisburg
257,Victoria,HK,68.0,broken clouds,22.2855,114.1577,Mini Hotel Central
258,El Monte,US,64.0,clear sky,34.0686,-118.0276,Ramada by Wyndham South El Monte
259,Iqaluit,CA,14.0,snow,63.7506,-68.5145,Frobisher Inn
260,New Cumnock,GB,42.8,broken clouds,55.3956,-4.1846,"Lochside House Hotel, Lodges and Spa"
262,Grindavik,IS,37.4,light rain,63.8424,-22.4338,Northern Light Inn & Max's Restaurant
264,Seoul,KR,33.8,clear sky,37.5683,126.9778,Lotte Hotel Seoul
265,Klyuchi,RU,22.35,overcast clouds,52.2667,79.1667,Vesolaya Mayovka
266,Sumbawanga,TZ,60.8,few clouds,-7.9667,31.6167,Matamba II Guest House
267,Airai,TL,67.39,light rain,-8.9266,125.4092,Juvinal Martin
270,Lagoa,PT,54.57,overcast clouds,39.05,-27.9833,Casa Das Faias
271,Jishou,CN,46.83,overcast clouds,28.3167,109.7167,7Days Inn Jishou Railway Station
272,Gushikawa,JP,66.2,scattered clouds,26.3544,127.8686,Kirari Guest House
273,Torbay,CA,41.0,light rain,47.6666,-52.7314,Gallows Cove
274,Dali,CN,43.48,scattered clouds,25.7,100.1833,Dali Travelling With Hostel
275,Buraydah,SA,64.4,scattered clouds,26.326,43.975,Mövenpick Hotel Qassim
276,Zarubino,RU,15.17,overcast clouds,42.63,131.0922,"Okean, Baza Otdykha"
282,Andenes,NO,35.6,overcast clouds,69.3143,16.1194,Hotell Marena
283,Smolenka,RU,12.2,scattered clouds,52.1352,113.4974,Russkaya Usadba v Zarechye
284,Komsomolskiy,UZ,32.0,clear sky,40.4272,71.7189,Ikathouse
285,San Quintin,MX,59.16,broken clouds,30.4833,-115.95,Old Mill Hotel
289,Parlakimidi,IN,61.34,clear sky,18.7667,84.0833,APEPDCL
290,Port Hawkesbury,CA,35.01,light rain,45.6169,-61.3485,MacKenzie House Tourist Home B&B
291,Raudeberg,NO,24.8,clear sky,61.9875,5.1352,Nordre Silda.
292,Saint-Francois,FR,45.0,overcast clouds,46.4154,3.9054,Manoir Du Bonheur
294,Bilma,NE,59.41,clear sky,18.6853,12.9164,Expeditions Ténére voyages
296,Portland,US,45.0,overcast clouds,45.5234,-122.6762,Embassy Suites by Hilton Portland Downtown
297,Forestville,US,39.2,clear sky,38.8451,-76.875,Quality Inn
298,Sennoy,RU,36.39,overcast clouds,52.1509,46.9631,Guesthouse Sennoi na Zelenoi
300,Narsaq,GL,14.0,overcast clouds,60.9167,-46.05,Hotel Narsaq
302,Ahipara,NZ,69.73,overcast clouds,-35.1667,173.1667,Ahipara Holiday Park
303,Krasnyy Chikoy,RU,13.12,overcast clouds,50.3643,108.7512,Persona
313,Chapais,CA,15.8,clear sky,49.7834,-74.8492,Hôtel Opémiska
315,Young,UY,69.01,clear sky,-32.6833,-57.6333,Posada Gira el Sol
319,Saint Anthony,US,14.0,clear sky,45.0205,-93.21799999999999,Holiday Inn Express Roseville-St. Paul
320,Naze,JP,66.2,few clouds,28.3667,129.4833,奄美ポートタワーホテル
322,Burnie,AU,68.0,moderate rain,-41.0667,145.9167,Beachfront Voyager Motor Inn
325,Ushtobe,KZ,26.62,overcast clouds,45.2514,77.9838,"Gostinitsa ""Diyar"""
327,Abalak,RU,13.96,light snow,58.1286,68.5944,Туристический комплекс Абалак
332,Kaifeng,CN,50.0,clear sky,34.7911,114.3483,Pullman Kaifeng Jianye
333,Berlevag,NO,28.45,light snow,70.8578,29.0864,Kvitbrakka
334,Mayo,US,37.99,clear sky,38.8876,-76.5119,Resorts Resource Group International
336,Hun,LY,55.99,clear sky,29.1268,15.9477,Alrwasi Hotel
338,Waitati,NZ,57.0,overcast clouds,-45.75,170.5667,Arden Country House BnB Dunedin
342,Kattivakkam,IN,69.8,mist,13.2167,80.3167,Raj's villa
343,Erenhot,CN,20.53,overcast clouds,43.6475,111.9767,Erenhot Rurouni Youth Hostel
344,Klaksvik,FO,32.0,light snow,62.2266,-6.5889999999999995,Airbnb rooms
345,Chuzhou,CN,46.99,overcast clouds,32.3219,118.2978,GreenTree Inn Chuzhou Langya Mountain Scenic Area Xijian Road Business Hotel
347,Reconquista,AR,69.01,clear sky,-29.15,-59.65,Grand Hotel
348,Roald,NO,23.0,clear sky,62.5833,6.1333,Flem Cabins
350,Mehran,IR,44.6,overcast clouds,33.1222,46.1646,بوتیک زنانه بهار
351,Bozeman,US,28.99,light snow,45.6796,-111.0386,Homewood Suites by Hilton Bozeman
352,Ferrol,ES,50.0,overcast clouds,43.4832,-8.2369,Carrís Almirante
354,Nara,JP,50.0,broken clouds,34.6851,135.8049,Guesthouse Nara Komachi
355,Dongsheng,CN,26.38,clear sky,39.8161,109.9776,Crowne Plaza Ordos
357,Sherman,US,50.0,clear sky,33.6357,-96.6089,La Quinta Inn & Suites by Wyndham Sherman
361,Mashhad,IR,37.4,clear sky,36.297,59.6062,Khanye Sabz Hotel
363,Waipawa,NZ,60.01,overcast clouds,-41.4122,175.5153,Tora Coastal Walk
365,Uspenka,UA,44.44,overcast clouds,48.3903,39.1619,"Санаторий-профилакторий ""Парус"""
369,Umm Lajj,SA,69.08,clear sky,25.0213,37.2685,Moon light Furnished Units
372,Morro Bay,US,57.0,clear sky,35.3658,-120.8499,Inn at Morro Bay
373,Randolph,US,44.6,overcast clouds,35.7001,-79.8164,Hampton Inn Asheboro
374,Ngunguru,NZ,68.76,overcast clouds,-35.6167,174.5,Pacific Rendezvous Motel Resort
375,Uyuni,BO,55.35,broken clouds,-20.4597,-66.825,Hostal La Magia de Uyuni
377,Kandry,RU,34.12,overcast clouds,54.5667,54.1167,Prometey Ooo Oao Stroneg
381,Zaoyang,CN,47.01,clear sky,32.1272,112.7542,Shanghai Hotel
382,Port Augusta,AU,68.0,overcast clouds,-32.5,137.7667,Majestic Oasis Apartments
383,Valparaiso,CL,63.0,overcast clouds,-33.0393,-71.6273,Hotel Ultramar
385,Serowe,BW,67.82,light rain,-22.3833,26.7167,Hill View Inn
389,Mutare,ZW,65.43,scattered clouds,-18.9707,32.6709,Ann Bruce Backpackers
393,Faya,SA,59.0,clear sky,18.3851,42.4509,مقبرة ال مجمل
395,Ponta Delgada,PT,55.0,scattered clouds,37.7333,-25.6667,Vila Nova Hotel
399,Saldanha,ZA,60.8,clear sky,-33.0117,17.9442,Blue Bay Lodge
401,Thunder Bay,CA,27.0,light snow,48.4001,-89.3168,Victoria Inn Hotel and Convention Centre
402,Bonavista,CA,39.2,overcast clouds,48.6499,-53.1147,Abbott's Bed & Breakfast
406,Drumheller,CA,21.2,overcast clouds,51.4617,-112.7101,Ramada by Wyndham Drumheller Hotel & Suites
407,Uetendorf,CH,42.01,scattered clouds,46.7739,7.5725,Rössli
408,Pingliang,CN,34.7,clear sky,35.5392,106.6861,North Gate Hostel
411,Zhengjiatun,CN,18.28,overcast clouds,43.5064,123.5064,Siping Hexiang Hotel
412,Ahrensburg,DE,33.8,broken clouds,53.6833,10.25,Hotel Am Schloss Ahrensburg
414,Tarut,SA,60.8,fog,26.5733,50.0369,مؤسسة مقاولات عامة
419,Praia Da Vitoria,PT,52.0,broken clouds,38.7333,-27.0667,Hotel Branco I
422,Rybnaya Sloboda,RU,33.8,light snow,55.4613,50.1409,Гостиница Аяз
423,Havelock,US,46.0,clear sky,34.8791,-76.9013,Sherwood Motel
424,Murray Bridge,AU,63.0,clear sky,-35.1167,139.2667,Balcony On Sixth Lodge
425,Morris,US,32.0,clear sky,40.8334,-74.5329,Parsippany Inn and Suites Morris Plains
427,Santa Maria Del Oro,MX,69.66,broken clouds,25.9333,-105.3667,Hotel Palacio Del Sol
429,Krasnoshchekovo,RU,24.3,overcast clouds,51.6708,82.7289,Viro гостиница
430,Ruidoso,US,44.6,clear sky,33.3317,-105.67299999999999,Inn of the Mountain Gods
433,Nynashamn,SE,15.01,broken clouds,58.9034,17.9479,Nynäs Havsbad
434,Shelburne,CA,28.99,clear sky,44.0787,-80.2041,The Retreat at the Farm
436,Scarborough,GB,42.01,overcast clouds,54.2797,-0.4044,Ambassador
438,Peachland,CA,39.2,overcast clouds,49.7665,-119.7357,Wine Stopper B&B
441,Ribeira Grande,PT,55.49,broken clouds,38.5167,-28.7,Quinta da Meia Eira
442,Lebu,CL,61.68,clear sky,-37.6167,-73.65,Hostal Las Lilas
443,Virginia Beach,US,42.01,overcast clouds,36.8529,-75.97800000000001,Hilton Virginia Beach Oceanfront
446,Joshimath,IN,34.23,broken clouds,30.5667,79.5667,Shivalik Camps & Resort
448,Loding,NO,23.0,broken clouds,67.3,14.75,Arctic Kramer
449,Astoria,US,48.99,mist,46.1879,-123.8313,Best Western Astoria Bayfront Hotel
455,Mwense,ZM,68.05,overcast clouds,-10.3845,28.698,Mwense Council Guest House
460,Thurso,GB,35.6,broken clouds,58.5927,-3.5259,Weigh Inn Hotel
461,Pacific Grove,US,55.99,clear sky,36.6177,-121.9166,Lovers Point Inn
462,Rancho Palos Verdes,US,57.99,clear sky,33.7445,-118.387,Terranea Resort
464,Maniitsoq,GL,12.74,overcast clouds,65.4167,-52.9,Hotel Heilmann Lyberth
466,Northam,GB,43.0,few clouds,51.0333,-4.2167,Durrant House Hotel
469,Korla,CN,23.83,scattered clouds,41.7597,86.1469,Gulisitan Hotel
470,Jumla,NP,33.06,overcast clouds,29.2747,82.1838,"अन्नी घर, जुम्ला - Anni Ghar"
473,Hammerfest,NO,30.2,light snow,70.6634,23.6821,Skytterhuset
476,Fukue,JP,50.0,broken clouds,32.6881,128.8419,Goto Guesthouse Utojuku & SA Car Rental
477,Aberdeen,GB,37.99,moderate rain,57.1437,-2.0981,Premier Inn Aberdeen City Centre hotel
482,Artigas,UY,65.79,clear sky,-30.4,-56.4667,Hotel Casino San Eugenio del Cuareim
483,Doha,QA,64.4,clear sky,25.2867,51.5333,Doha Marriott Hotel
484,Mujiayingzi,CN,23.49,few clouds,42.1167,118.7833,Jinjiang Hotel
485,Montepuez,MZ,68.5,scattered clouds,-13.1256,38.9997,Complexo Messalo
487,Maldonado,UY,68.0,broken clouds,-34.6667,-54.9167,La Cimarrona
489,Ardakan,IR,42.8,clear sky,32.31,54.0175,Ardakan Hotel
491,Wichita Falls,US,48.99,clear sky,33.9137,-98.4934,Quality Inn & Suites Wichita Falls I-44
492,Hambantota,LK,69.8,scattered clouds,6.1241,81.1185,Bungalow 63
497,Galveston,US,68.0,clear sky,29.3669,-94.9669,Comfort Inn & Suites Texas City
498,Sergach,RU,34.99,snow,55.5308,45.4661,"Medvezhiy Ugol, Gostinitsa"
499,Filadelfia,US,35.01,scattered clouds,39.9523,-75.1638,"The Ritz-Carlton, Philadelphia"
500,North Myrtle Beach,US,48.2,clear sky,33.816,-78.68,Avista Resort
502,Qaqortoq,GL,14.0,overcast clouds,60.7167,-46.0333,Hotel Qaqortoq
503,Constitucion,CL,59.52,broken clouds,-35.3333,-72.4167,Hotel Boutique Las Azucenas
505,Half Moon Bay,US,59.0,clear sky,37.4636,-122.4286,"The Ritz-Carlton, Half Moon Bay"
506,Chuncheng,CN,64.62,broken clouds,22.1731,111.7886,7Days Inn Yangjiang Yangchun Bus Terminal
507,Shingu,JP,48.2,scattered clouds,33.7333,135.9833,Shingu UI Hotel
509,Kenai,US,19.4,overcast clouds,60.5544,-151.2583,Aspen Extended Stay Suites
510,Lianzhou,CN,67.64,clear sky,24.7811,112.3825,Qingcheng Tourism Industry
512,Brae,GB,35.6,broken clouds,60.3964,-1.3530000000000002,Busta House Hotel
513,Ayagoz,KZ,17.2,overcast clouds,47.9714,80.4392,Gostinitsa Nur
514,Tabas,IR,39.2,clear sky,33.5959,56.9244,شرکت معماری مهراز شایگان آراد
516,Lata,PT,51.01,light rain,40.1629,-8.3327,Casa Maquia
517,Muroto,JP,48.2,scattered clouds,33.2833,134.15,Oota Ryokan
520,Gerash,IR,41.0,clear sky,27.6652,54.1371,Sa'adat House
522,Kuito,AO,60.84,overcast clouds,-12.3833,16.9333,Herdeiros de Antunes Capusso
524,Yuxia,CN,45.0,clear sky,34.0615,108.6291,Shanchengxuan Hotel
527,Kamaishi,JP,30.2,snow,39.2667,141.8833,Hotel Route Inn Kamaishi
528,Atar,MR,62.46,overcast clouds,20.5169,-13.0499,Oumou Elghoura
530,Margate,GB,46.99,overcast clouds,51.3813,1.3862,Premier Inn Margate hotel
535,Paris,FR,46.4,fog,48.8534,2.3488,Hôtel Britannique
536,Bandipur,NP,46.54,broken clouds,27.9333,84.4167,Bandipur Guest House
537,Xiuyan,CN,22.1,few clouds,40.2928,123.2744,Helin Holiday Hotel
538,San Vicente,AR,64.31,clear sky,-26.6167,-54.1333,Complejo Turístico Farelluk
539,Lamar,US,52.0,clear sky,33.6668,-95.5836,Kings Inn Paris TX
544,Red Bluff,US,62.6,clear sky,40.1785,-122.2358,Hampton Inn & Suites Red Bluff
545,Istok,XK,42.01,clear sky,42.7808,20.4875,Hotel TROFTA
546,Tatawin,TN,53.6,clear sky,32.9297,10.4518,Sangho Privilege Tataouine
547,Kassala,SD,65.21,clear sky,15.450999999999999,36.4,Amassi Hotel Gash
549,Kautokeino,NO,20.52,overcast clouds,69.0125,23.0412,Thon Hotel Kautokeino
551,Itoman,JP,66.2,few clouds,26.1247,127.6694,Southern Beach Hotel & Resort Okinawa
552,Bourg-En-Bresse,FR,46.99,overcast clouds,46.1667,5.1667,Chambres d'Hôtes Grange Carrée
555,Kasongo,CD,68.22,broken clouds,-4.45,26.6667,Guest Hôtel
556,Yatou,CN,41.31,overcast clouds,37.15,122.3833,GreenTree Hotel Rongcheng Bus Station
557,Golyshmanovo,RU,21.18,light snow,56.3979,68.3728,Mini gostinitsa Paradiz
560,Rincon De La Victoria,ES,57.99,few clouds,36.7172,-4.2758,Hotel Elimar
561,Sistranda,NO,15.8,few clouds,63.7256,8.834,Hotell Frøya
564,Zhangye,CN,27.25,clear sky,38.9342,100.4517,Zhangye Lvzhou Holiday Inn
572,Birjand,IR,26.6,clear sky,32.8663,59.2211,Birjand Tourist Hotel
575,Pincher Creek,CA,32.0,broken clouds,49.4833,-113.95200000000001,BLUE MOUNTAIN MOTEL
576,Barcelona,ES,55.0,scattered clouds,41.3888,2.1590000000000003,Axel Hotel Barcelona
578,Merta,IN,52.72,clear sky,26.65,74.0333,V Resorts Ganthiya
581,Altay,CN,17.51,broken clouds,47.8667,88.1167,Jinqiao Hotel
582,Vila Do Maio,CV,69.8,broken clouds,15.1333,-23.2167,Residence 'I Delfini'
584,Villa Rica,US,48.99,overcast clouds,33.7321,-84.9191,Days Inn by Wyndham Villa Rica
585,La Argentina,CO,62.35,overcast clouds,2.1961,-75.98,Parque P Pal La Argentina
588,Panzhihua,CN,50.5,clear sky,26.5851,101.7128,Electric Power Hotel
591,Pedana,IN,66.2,mist,16.2667,81.1667,Markaz Darulbir Hostel.
594,Mosquera,CO,59.0,scattered clouds,4.7059,-74.2302,Hotel SJ
595,North Las Vegas,US,59.0,clear sky,36.1989,-115.1175,Plaza Hotel & Casino
597,Nagorsk,RU,23.07,light snow,59.3172,50.8078,Uyutnyy Dom
600,San Jeronimo,PE,53.04,overcast clouds,-11.9472,-75.2829,Tuki Llajta Pueblo Bonito Eco Lodge
603,Rabat,MA,55.4,broken clouds,33.9911,-6.8401,Hôtel Mercure Rabat Sheherazade
604,Eyl,SO,68.43,clear sky,7.9803,49.8164,Amiin Hotel
605,Coihaique,CL,69.8,clear sky,-45.5752,-72.0662,Diego De Almagro Coyhaique
606,Casablanca,MA,60.01,mist,33.5928,-7.6192,فندق البيت المغربي كازبلانكا
615,Netrakona,BD,58.24,clear sky,24.8833,90.7167,kurpar gas office
618,Plettenberg Bay,ZA,64.81,clear sky,-34.0527,23.3716,Thanda Vista B&B
619,Crailsheim,DE,41.0,moderate rain,49.1344,10.0719,Drei König
621,Alanya,TR,51.8,clear sky,36.5438,31.9998,Panorama Hotel
622,Zatoka,UA,35.6,broken clouds,46.0725,30.4654,"База отдыха ""Солнечная"""
626,Houma,US,66.0,overcast clouds,29.5958,-90.7195,Courtyard by Marriott Houma
627,Orsk,RU,33.8,broken clouds,51.2049,58.5668,Kolizey
631,Honningsvag,NO,30.63,overcast clouds,70.9821,25.9704,Nordkapp Vandrerhjem
632,Rio Grande,BR,68.0,few clouds,-32.035,-52.0986,Hotel Atlântico Rio Grande
633,Winsum,NL,36.0,overcast clouds,53.33,6.5208,Tuinhuis
636,Sur,OM,64.89,clear sky,22.5667,59.5289,Sur Plaza Hotel
638,Salinas,US,59.0,clear sky,36.6777,-121.6555,Laurel Inn & Conference Center
639,Prince George,CA,28.4,light snow,53.9166,-122.75299999999999,Canadas Best Value Inn Prince George
643,Semnan,IR,43.05,clear sky,35.5729,53.3971,Semnan Tourist Hotel
645,Steamboat Springs,US,24.8,overcast clouds,40.485,-106.8317,Steamboat Grand
646,Uppsala,SE,17.01,light snow,60.0,17.75,Läderskål
647,Niigata,JP,32.0,light snow,37.9022,139.0236,Toyoko Inn Niigata Ekimae
648,Bulawayo,ZW,65.32,overcast clouds,-20.15,28.5833,4 On Housman Backpackers
651,Mto Wa Mbu,TZ,67.28,clear sky,-3.35,35.85,Fanaka Safaris Campsite & Lodges
657,Bardiyah,LY,57.72,clear sky,31.7561,25.0865,بورتو بردية
665,Goderich,CA,32.0,overcast clouds,43.7501,-81.7165,Harmony Inn
666,Derzhavinsk,KZ,29.71,overcast clouds,51.1,66.3167,Ooo.khim Baza
667,Mercedes,AR,68.0,clear sky,-34.6515,-59.4307,Posada del Inti Centro
674,Westport,US,35.6,clear sky,41.1415,-73.3579,Norwalk Inn
679,Prince Rupert,CA,39.2,light rain,54.3161,-130.3201,Crest Hotel
680,Sinjar,IQ,49.05,overcast clouds,36.3209,41.8754,زوماني فون 1
682,Zhanaozen,KZ,43.0,overcast clouds,43.3,52.8,K.korabay 28A
684,Palanpur,IN,56.88,clear sky,24.1667,72.4333,Hotel Lajwanti
685,Sarankhola,BD,58.05,clear sky,22.3082,89.7897,Md Mostafiz Mir Al Imran's House
686,Rosarito,MX,60.8,clear sky,32.3333,-117.0333,Hotel Festival Plaza Rosarito
688,Conceicao Do Rio Verde,BR,68.61,overcast clouds,-21.8808,-45.0853,Hotel Central
689,Santa Vitoria Do Palmar,BR,65.21,overcast clouds,-33.5189,-53.3681,Hostel Comodoro
692,Alausi,EC,52.48,light rain,-2.2,-78.8333,Hotel Europa
693,Wadi Maliz,TN,46.4,scattered clouds,36.4681,8.5495,HOPITAL
695,Najran,SA,55.4,clear sky,17.4924,44.1277,محمد هادي ال فطيح
698,Petropavlovsk-Kamchatskiy,RU,12.2,few clouds,53.0452,158.6483,"ООО ""Гостиничный комплекс ""Петропавловск"""
699,Shawnee,US,30.2,clear sky,39.05,-95.7669,Fairfield Inn by Marriott Topeka
702,Redmond,US,45.0,overcast clouds,47.674,-122.1215,Seattle Marriott Redmond
